[
    {
      "id": "loc_001",
      "name": "杭州牵牛岗",
      "region": "杭州周边",
      "latitude": 30.15,
      "longitude": 118.94,
      "bortle": 4.0,
      "access_modes": ["自驾"],
      "access_notes": null,
      "terrain_notes": null,
      "facilities": null,
      "source": null
    },
    {
      "id": "loc_002",
      "name": "杭州太子尖",
      "region": "杭州周边",
      "latitude": 30.18,
      "longitude": 118.91,
      "bortle": 4.0,
      "access_modes": ["自驾"],
      "access_notes": null,
      "terrain_notes": null,
      "facilities": null,
      "source": null
    },
    {
      "id": "loc_003",
      "name": "丽水星辰山",
      "region": "丽水周边",
      "latitude": 28.52,
      "longitude": 119.16,
      "bortle": 3.9,
      "access_modes": ["自驾"],
      "access_notes": null,
      "terrain_notes": null,
      "facilities": null,
      "source": null
    },
    {
      "id": "loc_004",
      "name": "盱眙铁山寺",
      "region": "南京周边",
      "latitude": 32.74,
      "longitude": 118.47,
      "bortle": 4.3,
      "access_modes": ["自驾"],
      "access_notes": null,
      "terrain_notes": null,
      "facilities": null,
      "source": null
    },
    {
      "id": "loc_005",
      "name": "盐城野鹿荡",
      "region": "盐城周边",
      "latitude": 32.99,
      "longitude": 120.84,
      "bortle": 4.3,
      "access_modes": ["自驾"],
      "access_notes": null,
      "terrain_notes": null,
      "facilities": null,
      "source": null
    },
    {
      "id": "loc_006",
      "name": "盐城黄海森林公园",
      "region": "盐城周边",
      "latitude": 32.85,
      "longitude": 120.82,
      "bortle": 4.3,
      "access_modes": ["公共交通", "自驾"],
      "access_notes": null,
      "terrain_notes": null,
      "facilities": null,
      "source": null
    },
    {
      "id": "loc_007",
      "name": "开化高田坑村",
      "region": "衢州周边",
      "latitude": 29.35,
      "longitude": 118.09,
      "bortle": 3.6,
      "access_modes": ["自驾"],
      "access_notes": null,
      "terrain_notes": null,
      "facilities": null,
      "source": null
    },
    {
      "id": "loc_008",
      "name": "千岛湖界首乡",
      "region": "杭州周边",
      "latitude": 29.62,
      "longitude": 118.88,
      "bortle": 4.0,
      "access_modes": ["公共交通", "自驾"],
      "access_notes": null,
      "terrain_notes": null,
      "facilities": null,
      "source": null
    },
    {
      "id": "loc_009",
      "name": "歙县下汰观景台",
      "region": "黄山周边",
      "latitude": 29.89,
      "longitude": 118.66,
      "bortle": 4.0,
      "access_modes": ["公共交通", "自驾"],
      "access_notes": null,
      "terrain_notes": null,
      "facilities": null,
      "source": null
    },
    {
      "id": "loc_010",
      "name": "舟山东极岛",
      "region": "舟山周边",
      "latitude": 30.19,
      "longitude": 122.68,
      "bortle": 4.1,
      "access_modes": ["公共交通", "自驾"],
      "access_notes": null,
      "terrain_notes": null,
      "facilities": null,
      "source": null
    },
    {
      "id": "loc_011",
      "name": "衢州桃源尖",
      "region": "衢州周边",
      "latitude": 28.84,
      "longitude": 118.95,
      "bortle": 4.3,
      "access_modes": ["自驾"],
      "access_notes": null,
      "terrain_notes": null,
      "facilities": null,
      "source": null
    },
    {
      "id": "loc_012",
      "name": "丽水白鹤尖",
      "region": "丽水周边",
      "latitude": 27.81,
      "longitude": 119.61,
      "bortle": 4.1,
      "access_modes": ["自驾"],
      "access_notes": null,
      "terrain_notes": null,
      "facilities": null,
      "source": null
    },
    {
      "id": "loc_013",
      "name": "绩溪徽杭古道",
      "region": "宣城周边",
      "latitude": 30.12,
      "longitude": 118.77,
      "bortle": 3.9,
      "access_modes": ["公共交通", "自驾"],
      "access_notes": null,
      "terrain_notes": null,
      "facilities": null,
      "source": null
    },
    {
      "id": "loc_014",
      "name": "宣城宁国市落羽杉摄影观景台",
      "region": "宣城周边",
      "latitude": 30.41,
      "longitude": 119.01,
      "bortle": 4.0,
      "access_modes": ["自驾"],
      "access_notes": null,
      "terrain_notes": null,
      "facilities": null,
      "source": null
    },
    {
      "id": "loc_015",
      "name": "宣城梅干岭",
      "region": "宣城周边",
      "latitude": 30.48,
      "longitude": 118.42,
      "bortle": 4.0,
      "access_modes": ["公共交通", "自驾"],
      "access_notes": null,
      "terrain_notes": null,
      "facilities": null,
      "source": null
    },
    {
      "id": "loc_016",
      "name": "旌德县路西空中茶园",
      "region": "宣城周边",
      "latitude": 30.32,
      "longitude": 118.54,
      "bortle": 4.0,
      "access_modes": ["自驾"],
      "access_notes": null,
      "terrain_notes": null,
      "facilities": null,
      "source": null
    },
    {
      "id": "loc_017",
      "name": "黄山景区",
      "region": "黄山周边",
      "latitude": 30.13,
      "longitude": 118.17,
      "bortle": 3.9,
      "access_modes": ["公共交通", "自驾"],
      "access_notes": null,
      "terrain_notes": null,
      "facilities": null,
      "source": null
    },
    {
      "id": "loc_018",
      "name": "南京石臼湖",
      "region": "南京周边",
      "latitude": 31.45,
      "longitude": 118.91,
      "bortle": 5.0,
      "access_modes": ["公共交通", "自驾"],
      "access_notes": null,
      "terrain_notes": null,
      "facilities": null,
      "source": null
    },
    {
      "id": "loc_019",
      "name": "溧阳沙子岗水库",
      "region": "常州周边",
      "latitude": 31.33,
      "longitude": 119.41,
      "bortle": 4.8,
      "access_modes": ["自驾"],
      "access_notes": null,
      "terrain_notes": null,
      "facilities": null,
      "source": null
    }
  ]